[
  {"name": "Embassy Paris", "lat": 48.8566, "lng": 2.3522},
  {"name": "Embassy London", "lat": 51.5074, "lng": -0.1278},
  {"name": "Embassy Tokyo", "lat": 35.6762, "lng": 139.6503},
  {"name": "Embassy Beijing", "lat": 39.9042, "lng": 116.4074},
  {"name": "Embassy Moscow", "lat": 55.7558, "lng": 37.6173},
  {"name": "Embassy Berlin", "lat": 52.5200, "lng": 13.4050},
  {"name": "Embassy Rome", "lat": 41.9028, "lng": 12.4964},
  {"name": "Embassy Madrid", "lat": 40.4168, "lng": -3.7038},
  {"name": "Embassy Sydney", "lat": -33.8688, "lng": 151.2093},
  {"name": "Embassy Delhi", "lat": 28.6139, "lng": 77.2090},
  {"name": "Embassy Cairo", "lat": 30.0444, "lng": 31.2357},
  {"name": "Embassy Rio", "lat": -22.9068, "lng": -43.1729},
  {"name": "Embassy Mexico City", "lat": 19.4326, "lng": -99.1332},
  {"name": "Embassy Toronto", "lat": 43.6532, "lng": -79.3832},
  {"name": "Embassy Singapore", "lat": 1.3521, "lng": 103.8198},
  {"name": "Embassy Seoul", "lat": 37.5665, "lng": 126.9780},
  {"name": "Embassy Istanbul", "lat": 41.0082, "lng": 28.9784},
  {"name": "Embassy Dubai", "lat": 25.2048, "lng": 55.2708},
  {"name": "Embassy Cape Town", "lat": -33.9249, "lng": 18.4241},
  {"name": "Embassy Lagos", "lat": 6.5244, "lng": 3.3792},
  {"name": "Embassy Athens", "lat": 37.9838, "lng": 23.7275},
  {"name": "Embassy Lisbon", "lat": 38.7223, "lng": -9.1393},
  {"name": "Embassy Brussels", "lat": 50.8503, "lng": 4.3517},
  {"name": "Embassy Amsterdam", "lat": 52.3676, "lng": 4.9041},
  {"name": "Embassy Copenhagen", "lat": 55.6761, "lng": 12.5683},
  {"name": "Embassy Dublin", "lat": 53.3498, "lng": -6.2603},
  {"name": "Embassy Mumbai", "lat": 19.0760, "lng": 72.8777},
  {"name": "Embassy Bangalore", "lat": 12.9716, "lng": 77.5946},
  {"name": "Embassy Shanghai", "lat": 31.2304, "lng": 121.4737},
  {"name": "Embassy Hong Kong", "lat": 22.3193, "lng": 114.1694},
  {"name": "Embassy Jakarta", "lat": -6.2088, "lng": 106.8456},
  {"name": "Embassy Manila", "lat": 14.5995, "lng": 120.9842},
  {"name": "Embassy Hanoi", "lat": 21.0285, "lng": 105.8542},
  {"name": "Embassy Lima", "lat": -12.0464, "lng": -77.0428},
  {"name": "Embassy Buenos Aires", "lat": -34.6037, "lng": -58.3816},
  {"name": "Embassy Santiago", "lat": -33.4489, "lng": -70.6693},
  {"name": "Embassy Bogota", "lat": 4.7110, "lng": -74.0721},
  {"name": "Embassy Caracas", "lat": 10.4806, "lng": -66.9036},
  {"name": "Embassy Panama City", "lat": 8.9824, "lng": -79.5199},
  {"name": "Embassy San Jose", "lat": 9.9281, "lng": -84.0907},
  {"name": "Embassy Warsaw", "lat": 52.2297, "lng": 21.0122},
  {"name": "Embassy Prague", "lat": 50.0755, "lng": 14.4378},
  {"name": "Embassy Vienna", "lat": 48.2082, "lng": 16.3738},
  {"name": "Embassy Budapest", "lat": 47.4979, "lng": 19.0402},
  {"name": "Embassy Stockholm", "lat": 59.3293, "lng": 18.0686},
  {"name": "Embassy Oslo", "lat": 59.9139, "lng": 10.7522},
  {"name": "Embassy Helsinki", "lat": 60.1699, "lng": 24.9384},
  {"name": "Embassy Tel Aviv", "lat": 32.0853, "lng": 34.7818},
  {"name": "Embassy Riyadh", "lat": 24.7136, "lng": 46.6753},
  {"name": "Embassy Kuwait City", "lat": 29.3759, "lng": 47.9774}
]
